{
    "baton-rouge": {
      "location": "Baton Rouge",
      "latitude": "30.4515",
      "longitude": "-91.1871",
      "keywords": "pressure washing Baton Rouge, driveway cleaning Baton Rouge, house washing Baton Rouge, deck cleaning Baton Rouge",
      "description": "Expert pressure washing services in Baton Rouge. We specialize in driveway, house, and deck cleaning. Get your home looking brand new with Around the House. Free quotes available!"
    },
    "prarieville": {
      "location": "Prarieville",
      "latitude": "30.3025",
      "longitude": "-90.9711",
      "keywords": "pressure washing Prarieville, driveway cleaning Prarieville, house washing Prarieville, deck cleaning Prarieville",
      "description": "Professional pressure washing services in Prarieville. Specializing in driveway, house, and deck cleaning. Get your home shining like new!"
    },
    "zachary": {
      "location": "Zachary",
      "latitude": "30.6480",
      "longitude": "-91.1565",
      "keywords": "pressure washing Zachary, driveway cleaning Zachary, house washing Zachary, deck cleaning Zachary",
      "description": "Top-rated pressure washing services in Zachary. We offer expert driveway, house, and deck cleaning. Get your free quote today!"
    },
    "denham-springs": {
      "location": "Denham Springs",
      "latitude": "30.4861",
      "longitude": "-90.9565",
      "keywords": "pressure washing Denham Springs, driveway cleaning Denham Springs, house washing Denham Springs, deck cleaning Denham Springs",
      "description": "Reliable pressure washing services in Denham Springs. We specialize in driveway, house, and deck cleaning. Contact us for a free estimate!"
    },
    "gonzales": {
      "location": "Gonzales",
      "latitude": "30.2385",
      "longitude": "-90.9201",
      "keywords": "pressure washing Gonzales, driveway cleaning Gonzales, house washing Gonzales, deck cleaning Gonzales",
      "description": "Quality pressure washing services in Gonzales. From driveways to decks, our cleaning services will make your property shine. Get a free quote today!"
    },
    "central": {
      "location": "Central",
      "latitude": "30.5543",
      "longitude": "-91.0364",
      "keywords": "pressure washing Central, driveway cleaning Central, house washing Central, deck cleaning Central",
      "description": "Professional pressure washing services in Central. We offer top-notch driveway, house, and deck cleaning services. Request a free quote now!"
    },
    "walker": {
      "location": "Walker",
      "latitude": "30.4868",
      "longitude": "-90.8612",
      "keywords": "pressure washing Walker, driveway cleaning Walker, house washing Walker, deck cleaning Walker",
      "description": "Trusted pressure washing services in Walker. Specializing in driveway, house, and deck cleaning. Contact us today for a free estimate!"
    },
    "baker": {
      "location": "Baker",
      "latitude": "30.5888",
      "longitude": "-91.1685",
      "keywords": "pressure washing Baker, driveway cleaning Baker, house washing Baker, deck cleaning Baker",
      "description": "Expert pressure washing services in Baker. We provide top-quality driveway, house, and deck cleaning. Get your free quote today!"
    },
    "port-allen": {
      "location": "Port Allen",
      "latitude": "30.4524",
      "longitude": "-91.2101",
      "keywords": "pressure washing Port Allen, driveway cleaning Port Allen, house washing Port Allen, deck cleaning Port Allen",
      "description": "Reliable pressure washing services in Port Allen. Specializing in driveway, house, and deck cleaning. Get a free quote now!"
    },
    "addis": {
      "location": "Addis",
      "latitude": "30.3549",
      "longitude": "-91.2676",
      "keywords": "pressure washing Addis, driveway cleaning Addis, house washing Addis, deck cleaning Addis",
      "description": "Top-rated pressure washing services in Addis. We offer expert driveway, house, and deck cleaning. Contact us today for a free estimate!"
    },
    "plaquemine": {
      "location": "Plaquemine",
      "latitude": "30.2899",
      "longitude": "-91.2343",
      "keywords": "pressure washing Plaquemine, driveway cleaning Plaquemine, house washing Plaquemine, deck cleaning Plaquemine",
      "description": "Professional pressure washing services in Plaquemine. Specializing in driveway, house, and deck cleaning. Get your home looking brand new!"
    },
    "st-amant": {
      "location": "St. Amant",
      "latitude": "30.2144",
      "longitude": "-90.8533",
      "keywords": "pressure washing St. Amant, driveway cleaning St. Amant, house washing St. Amant, deck cleaning St. Amant",
      "description": "Reliable pressure washing services in St. Amant. We specialize in driveway, house, and deck cleaning. Get your free quote today!"
    },
    "geismar": {
      "location": "Geismar",
      "latitude": "30.2266",
      "longitude": "-91.0148",
      "keywords": "pressure washing Geismar, driveway cleaning Geismar, house washing Geismar, deck cleaning Geismar",
      "description": "Expert pressure washing services in Geismar. Specializing in driveway, house, and deck cleaning. Contact us for a free estimate today!"
    }
  }
  