{
  "jarrell": {
    "location": "Jarrell",
    "latitude": "30.8533",
    "longitude": "-97.6522",
    "keywords": "furniture assembly Jarrell, pressure washing Jarrell, home assembly Jarrell, exterior cleaning Jarrell",
    "description": "Expert furniture assembly and pressure washing services in Jarrell, TX. From desks and shelving to driveways and patios, we make your home look its best. Free quotes available!"
  },
  "thrall": {
    "location": "Thrall",
    "latitude": "30.6500",
    "longitude": "-97.1967",
    "keywords": "furniture assembly Thrall, pressure washing Thrall, home assembly Thrall, exterior cleaning Thrall",
    "description": "Professional furniture assembly and pressure washing in Thrall, TX. We assemble desks, beds, and more—and clean driveways and decks. Contact us for a free estimate!"
  },
  "salado": {
    "location": "Salado",
    "latitude": "30.6866",
    "longitude": "-97.6107",
    "keywords": "furniture assembly Salado, pressure washing Salado, home assembly Salado, exterior cleaning Salado",
    "description": "Reliable furniture assembly and pressure washing services in Salado, TX. Let us handle your home projects and cleaning needs—get a free quote today!"
  },
  "taylor": {
    "location": "Taylor",
    "latitude": "30.5730",
    "longitude": "-97.4098",
    "keywords": "furniture assembly Taylor, pressure washing Taylor, home assembly Taylor, exterior cleaning Taylor",
    "description": "Top-rated furniture assembly and pressure washing in Taylor, TX. From living room sets to patios, we deliver quality and care. Request your free estimate now!"
  },
  "hutto": {
    "location": "Hutto",
    "latitude": "30.5422",
    "longitude": "-97.5888",
    "keywords": "furniture assembly Hutto, pressure washing Hutto, home assembly Hutto, exterior cleaning Hutto",
    "description": "Trusted furniture assembly and pressure washing in Hutto, TX. We build your furniture perfectly and clean your exterior surfaces thoroughly. Contact us today!"
  },
  "georgetown": {
    "location": "Georgetown",
    "latitude": "30.6333",
    "longitude": "-97.6772",
    "keywords": "furniture assembly Georgetown, pressure washing Georgetown, home assembly Georgetown, exterior cleaning Georgetown",
    "description": "Expert furniture assembly and pressure washing services in Georgetown, TX. We assemble beds, desks, and more, and restore driveways and decks to like-new condition. Free quotes!"
  },
  "round-rock": {
    "location": "Round Rock",
    "latitude": "30.5083",
    "longitude": "-97.6789",
    "keywords": "furniture assembly Round Rock, pressure washing Round Rock, home assembly Round Rock, exterior cleaning Round Rock",
    "description": "Professional furniture assembly and pressure washing in Round Rock, TX. Whether it’s a new bookcase or a dirty driveway, we’ve got you covered. Get your free estimate today!"
  },
  "pflugerville": {
    "location": "Pflugerville",
    "latitude": "30.4392",
    "longitude": "-97.6200",
    "keywords": "furniture assembly Pflugerville, pressure washing Pflugerville, home assembly Pflugerville, exterior cleaning Pflugerville",
    "description": "Reliable furniture assembly and pressure washing in Pflugerville, TX. From complex kits to concrete cleaning, our team does it all. Contact us for a free quote!"
  },
  "leander": {
    "location": "Leander",
    "latitude": "30.5483",
    "longitude": "-97.8614",
    "keywords": "furniture assembly Leander, pressure washing Leander, home assembly Leander, exterior cleaning Leander",
    "description": "Quality furniture assembly and pressure washing services in Leander, TX. We build and clean with precision and care—request your free estimate now!"
  },
  "cedar-park": {
    "location": "Cedar Park",
    "latitude": "30.5052",
    "longitude": "-97.8203",
    "keywords": "furniture assembly Cedar Park, pressure washing Cedar Park, home assembly Cedar Park, exterior cleaning Cedar Park",
    "description": "Top-notch furniture assembly and pressure washing in Cedar Park, TX. From new furniture to thorough cleaning, trust us for excellent service. Free quotes available!"
  }
}
